[
    {
      "latitude": -6.95488,
      "longitude": 107.646,
      "name": "Cipagalo",
      "phone": "021-2567890",
      "time": "09.00-22.00",
      "address": "Jl. Margacinta No.48, Margasari, Buahbatu, Kota Bandung, Jawa Barat 40287, Indonesia"
    },
    {
      "latitude": -6.956775,
      "longitude": 107.6464,
      "name": "bakung",
      "phone": "021-2554098",
      "time": "07.00-19.00",
      "address": "Jalan Bunga Bakung IV No.13, Cijaura, Buahbatu, Kota Bandung, Jawa Barat 40287, Indonesia"
    },
    {
      "latitude": -6.963422,
      "longitude": 107.645111,
      "name": "Buana Sari 1",
      "phone": "021-2520910",
      "time": "08.00-18.00",
      "address": "Jalan Buana Sari Raya Timur II No.264, Kujangsari, Bandung Kidul, Kota Bandung, Jawa Barat 40287, Indonesia"
    },
    {
      "latitude": -7.362972,
      "longitude": 112.771689,
      "name": "Toko AK Kimia",
      "phone": "0812-7980-5567",
      "time": "08.00-22.00",
      "address": "Jl. Griyo Mapan Utara IVE No.29, Jabon, Tambaksawah, Waru, Kabupaten Sidoarjo, Jawa Timur 61256, Indonesia"
    },
    {
      "latitude": 5.85333,
      "longitude": 95.3489,
      "name": "RCTI BALOHAN",
      "phone": "0877-9985-0842",
      "time": "09.00-22.00",
      "address": "Cot Abeuk, Sukajaya, Kota Sabang, Aceh, Indonesia"
    },
    {
      "latitude": -6.993933,
      "longitude": 110.398422,
      "name": "Medianet",
      "phone": "0898-6190-887",
      "time": "11.00-24.00",
      "address": "Jl. Simongan No.117, Bongsari, Semarang Bar., Kota Semarang, Jawa Tengah 50148, Indonesia"
    }
  ]
  	
  	
   

